{
    "type": "FeatureCollection",
    "crs": {
        "type": "name",
        "properties": {
            "name": "urn:ogc:def:crs:OGC:1.3:CRS84"
        }
    },
    "features": [
        {
            "type": "Feature",
            "properties": {
                "res_com": "M1",
                "label": "Saint-Mandé"
            },
            "geometry": {
                "type": "Point",
                "coordinates": [
                    2.420350814378168,
                    48.846277285808043
                ]
            }
        },
        {
            "type": "Feature",
            "properties": {
                "res_com": "M1 \/ M8 \/ M12",
                "label": "Concorde"
            },
            "geometry": {
                "type": "Point",
                "coordinates": [
                    2.322943412243542,
                    48.866285804583875
                ]
            }
        },
        {
            "type": "Feature",
            "properties": {
                "res_com": "M2",
                "label": "Anvers"
            },
            "geometry": {
                "type": "Point",
                "coordinates": [
                    2.344130633722553,
                    48.882868647568387
                ]
            }
        },
        {
            "type": "Feature",
            "properties": {
                "res_com": "M2",
                "label": "Rome"
            },
            "geometry": {
                "type": "Point",
                "coordinates": [
                    2.321274926766349,
                    48.88222690081934
                ]
            }
        },
        {
            "type": "Feature",
            "properties": {
                "res_com": "M2",
                "label": "Monceau"
            },
            "geometry": {
                "type": "Point",
                "coordinates": [
                    2.309451167991542,
                    48.8804494561385
                ]
            }
        },
        {
            "type": "Feature",
            "properties": {
                "res_com": "M2 \/ M3",
                "label": "Père Lachaise"
            },
            "geometry": {
                "type": "Point",
                "coordinates": [
                    2.387434950999083,
                    48.862949833042585
                ]
            }
        },
        {
            "type": "Feature",
            "properties": {
                "res_com": "M3 \/ M9",
                "label": "Havre-Caumartin"
            },
            "geometry": {
                "type": "Point",
                "coordinates": [
                    2.326999858880872,
                    48.873806733862558
                ]
            }
        },
        {
            "type": "Feature",
            "properties": {
                "res_com": "M3",
                "label": "Malesherbes"
            },
            "geometry": {
                "type": "Point",
                "coordinates": [
                    2.309052264550479,
                    48.882891917454131
                ]
            }
        },
        {
            "type": "Feature",
            "properties": {
                "res_com": "M3",
                "label": "Louise Michel"
            },
            "geometry": {
                "type": "Point",
                "coordinates": [
                    2.288083633048504,
                    48.888706019775142
                ]
            }
        },
        {
            "type": "Feature",
            "properties": {
                "res_com": "M2 \/ M4",
                "label": "Barbès-Rochechouart"
            },
            "geometry": {
                "type": "Point",
                "coordinates": [
                    2.349636148269586,
                    48.883734465746969
                ]
            }
        },
        {
            "type": "Feature",
            "properties": {
                "res_com": "M4",
                "label": "Les Halles"
            },
            "geometry": {
                "type": "Point",
                "coordinates": [
                    2.345673828211428,
                    48.8623162795949
                ]
            }
        },
        {
            "type": "Feature",
            "properties": {
                "res_com": "M4",
                "label": "Saint-Germain-des-Près"
            },
            "geometry": {
                "type": "Point",
                "coordinates": [
                    2.333776138218468,
                    48.853718934000206
                ]
            }
        },
        {
            "type": "Feature",
            "properties": {
                "res_com": "M4",
                "label": "Vavin"
            },
            "geometry": {
                "type": "Point",
                "coordinates": [
                    2.329008926235403,
                    48.842218413613523
                ]
            }
        },
        {
            "type": "Feature",
            "properties": {
                "res_com": "M4",
                "label": "Mouton-Duvernet"
            },
            "geometry": {
                "type": "Point",
                "coordinates": [
                    2.329705012620185,
                    48.831112660375325
                ]
            }
        },
        {
            "type": "Feature",
            "properties": {
                "res_com": "M9",
                "label": "Ranelagh"
            },
            "geometry": {
                "type": "Point",
                "coordinates": [
                    2.270109138954491,
                    48.855485049505155
                ]
            }
        },
        {
            "type": "Feature",
            "properties": {
                "res_com": "M7 \/ M9",
                "label": "Chaussée d'Antin-La Fayette"
            },
            "geometry": {
                "type": "Point",
                "coordinates": [
                    2.333257091791215,
                    48.872968140811295
                ]
            }
        },
        {
            "type": "Feature",
            "properties": {
                "res_com": "M9",
                "label": "St-Ambroise"
            },
            "geometry": {
                "type": "Point",
                "coordinates": [
                    2.37473343128132,
                    48.861019259919587
                ]
            }
        },
        {
            "type": "Feature",
            "properties": {
                "res_com": "M9",
                "label": "Maraîchers"
            },
            "geometry": {
                "type": "Point",
                "coordinates": [
                    2.40608916324169,
                    48.852725119277601
                ]
            }
        },
        {
            "type": "Feature",
            "properties": {
                "res_com": "M10",
                "label": "Boulogne-Jean Jaurès"
            },
            "geometry": {
                "type": "Point",
                "coordinates": [
                    2.238887328515537,
                    48.842005347298226
                ]
            }
        },
        {
            "type": "Feature",
            "properties": {
                "res_com": "M10",
                "label": "Cluny La Sorbonne"
            },
            "geometry": {
                "type": "Point",
                "coordinates": [
                    2.344273345421351,
                    48.851050282314304
                ]
            }
        },
        {
            "type": "Feature",
            "properties": {
                "res_com": "M11",
                "label": "Télégraphe"
            },
            "geometry": {
                "type": "Point",
                "coordinates": [
                    2.398867599341846,
                    48.875474457592112
                ]
            }
        },
        {
            "type": "Feature",
            "properties": {
                "res_com": "M7b \/ M11",
                "label": "Place des Fêtes"
            },
            "geometry": {
                "type": "Point",
                "coordinates": [
                    2.393056093323958,
                    48.876806389219809
                ]
            }
        },
        {
            "type": "Feature",
            "properties": {
                "res_com": "M11",
                "label": "Jourdain"
            },
            "geometry": {
                "type": "Point",
                "coordinates": [
                    2.389415029319366,
                    48.875111816042818
                ]
            }
        },
        {
            "type": "Feature",
            "properties": {
                "res_com": "M12",
                "label": "Mairie d'Issy"
            },
            "geometry": {
                "type": "Point",
                "coordinates": [
                    2.273041523780413,
                    48.824105030680691
                ]
            }
        },
        {
            "type": "Feature",
            "properties": {
                "res_com": "M12",
                "label": "Trinité d'Estienne d'Orves"
            },
            "geometry": {
                "type": "Point",
                "coordinates": [
                    2.332543027297523,
                    48.876317962264473
                ]
            }
        },
        {
            "type": "Feature",
            "properties": {
                "res_com": "M2 \/ M12",
                "label": "Pigalle"
            },
            "geometry": {
                "type": "Point",
                "coordinates": [
                    2.337085136498658,
                    48.882442690881547
                ]
            }
        },
        {
            "type": "Feature",
            "properties": {
                "res_com": "M12",
                "label": "Abbesses"
            },
            "geometry": {
                "type": "Point",
                "coordinates": [
                    2.337949777055663,
                    48.884594208035338
                ]
            }
        },
        {
            "type": "Feature",
            "properties": {
                "res_com": "M12",
                "label": "Jules Joffrin"
            },
            "geometry": {
                "type": "Point",
                "coordinates": [
                    2.34465700412862,
                    48.892439590482105
                ]
            }
        },
        {
            "type": "Feature",
            "properties": {
                "res_com": "M13",
                "label": "Brochant"
            },
            "geometry": {
                "type": "Point",
                "coordinates": [
                    2.320174755787804,
                    48.890587186604058
                ]
            }
        },
        {
            "type": "Feature",
            "properties": {
                "res_com": "M10 \/ M13",
                "label": "Duroc"
            },
            "geometry": {
                "type": "Point",
                "coordinates": [
                    2.316634671114557,
                    48.846854854852737
                ]
            }
        },
        {
            "type": "Feature",
            "properties": {
                "res_com": "M13",
                "label": "Varenne"
            },
            "geometry": {
                "type": "Point",
                "coordinates": [
                    2.315056637317088,
                    48.856871379249178
                ]
            }
        },
        {
            "type": "Feature",
            "properties": {
                "res_com": "M2 \/ M13",
                "label": "Place de Clichy"
            },
            "geometry": {
                "type": "Point",
                "coordinates": [
                    2.327228335720636,
                    48.883430013825702
                ]
            }
        },
        {
            "type": "Feature",
            "properties": {
                "res_com": "M13",
                "label": "La Fourche"
            },
            "geometry": {
                "type": "Point",
                "coordinates": [
                    2.325779674806892,
                    48.887183946865783
                ]
            }
        },
        {
            "type": "Feature",
            "properties": {
                "res_com": "M3b",
                "label": "Saint-Fargeau"
            },
            "geometry": {
                "type": "Point",
                "coordinates": [
                    2.404514942379104,
                    48.872101442131545
                ]
            }
        },
        {
            "type": "Feature",
            "properties": {
                "res_com": "M7b",
                "label": "Buttes-Chaumont"
            },
            "geometry": {
                "type": "Point",
                "coordinates": [
                    2.381614513292405,
                    48.878514114030864
                ]
            }
        },
        {
            "type": "Feature",
            "properties": {
                "res_com": "M6",
                "label": "Chevaleret"
            },
            "geometry": {
                "type": "Point",
                "coordinates": [
                    2.368126329061812,
                    48.834947722348048
                ]
            }
        },
        {
            "type": "Feature",
            "properties": {
                "res_com": "M6",
                "label": "Corvisart"
            },
            "geometry": {
                "type": "Point",
                "coordinates": [
                    2.350414870648404,
                    48.829790513685566
                ]
            }
        },
        {
            "type": "Feature",
            "properties": {
                "res_com": "M7",
                "label": "Cadet"
            },
            "geometry": {
                "type": "Point",
                "coordinates": [
                    2.344126030464426,
                    48.875890681893708
                ]
            }
        },
        {
            "type": "Feature",
            "properties": {
                "res_com": "M7",
                "label": "Le Peletier"
            },
            "geometry": {
                "type": "Point",
                "coordinates": [
                    2.34019988438517,
                    48.874874343377371
                ]
            }
        },
        {
            "type": "Feature",
            "properties": {
                "res_com": "M7",
                "label": "Pont-Neuf"
            },
            "geometry": {
                "type": "Point",
                "coordinates": [
                    2.342232757993842,
                    48.85855382725849
                ]
            }
        },
        {
            "type": "Feature",
            "properties": {
                "res_com": "M7",
                "label": "Pont-Marie"
            },
            "geometry": {
                "type": "Point",
                "coordinates": [
                    2.357162568881776,
                    48.853575473388219
                ]
            }
        },
        {
            "type": "Feature",
            "properties": {
                "res_com": "M7",
                "label": "Place Monge"
            },
            "geometry": {
                "type": "Point",
                "coordinates": [
                    2.352224728183084,
                    48.842866830682659
                ]
            }
        },
        {
            "type": "Feature",
            "properties": {
                "res_com": "M7",
                "label": "Tolbiac"
            },
            "geometry": {
                "type": "Point",
                "coordinates": [
                    2.357245650758686,
                    48.826426010875664
                ]
            }
        },
        {
            "type": "Feature",
            "properties": {
                "res_com": "M8 \/ M12 \/ M14",
                "label": "Madeleine"
            },
            "geometry": {
                "type": "Point",
                "coordinates": [
                    2.325164109535879,
                    48.870099732848473
                ]
            }
        },
        {
            "type": "Feature",
            "properties": {
                "res_com": "M3 \/ M7 \/ M8",
                "label": "Opéra"
            },
            "geometry": {
                "type": "Point",
                "coordinates": [
                    2.33235463926327,
                    48.870677681844235
                ]
            }
        },
        {
            "type": "Feature",
            "properties": {
                "res_com": "M8",
                "label": "Montgallet"
            },
            "geometry": {
                "type": "Point",
                "coordinates": [
                    2.39007511282003,
                    48.844408672078906
                ]
            }
        },
        {
            "type": "Feature",
            "properties": {
                "res_com": "M8",
                "label": "Michel Bizot"
            },
            "geometry": {
                "type": "Point",
                "coordinates": [
                    2.402333165917444,
                    48.837117006995527
                ]
            }
        },
        {
            "type": "Feature",
            "properties": {
                "res_com": "M9",
                "label": "Billancourt"
            },
            "geometry": {
                "type": "Point",
                "coordinates": [
                    2.238639348575401,
                    48.832110560110216
                ]
            }
        },
        {
            "type": "Feature",
            "properties": {
                "res_com": "M1",
                "label": "Louvre-Rivoli"
            },
            "geometry": {
                "type": "Point",
                "coordinates": [
                    2.341108591634067,
                    48.860806291272098
                ]
            }
        },
        {
            "type": "Feature",
            "properties": {
                "res_com": "M1",
                "label": "George V"
            },
            "geometry": {
                "type": "Point",
                "coordinates": [
                    2.300560451248797,
                    48.872023809500433
                ]
            }
        },
        {
            "type": "Feature",
            "properties": {
                "res_com": "M1",
                "label": "Argentine"
            },
            "geometry": {
                "type": "Point",
                "coordinates": [
                    2.289322589613774,
                    48.87559404986667
                ]
            }
        },
        {
            "type": "Feature",
            "properties": {
                "res_com": "M2",
                "label": "Couronnes"
            },
            "geometry": {
                "type": "Point",
                "coordinates": [
                    2.380542585989343,
                    48.869091162924988
                ]
            }
        },
        {
            "type": "Feature",
            "properties": {
                "res_com": "M2",
                "label": "Ternes"
            },
            "geometry": {
                "type": "Point",
                "coordinates": [
                    2.298310375124943,
                    48.877972701427545
                ]
            }
        },
        {
            "type": "Feature",
            "properties": {
                "res_com": "M2",
                "label": "Victor Hugo"
            },
            "geometry": {
                "type": "Point",
                "coordinates": [
                    2.285335094686169,
                    48.86979855646068
                ]
            }
        },
        {
            "type": "Feature",
            "properties": {
                "res_com": "M3 \/ M3b",
                "label": "Gambetta"
            },
            "geometry": {
                "type": "Point",
                "coordinates": [
                    2.398984440248072,
                    48.864916685051831
                ]
            }
        },
        {
            "type": "Feature",
            "properties": {
                "res_com": "M3",
                "label": "Parmentier"
            },
            "geometry": {
                "type": "Point",
                "coordinates": [
                    2.374581969996412,
                    48.865253786054325
                ]
            }
        },
        {
            "type": "Feature",
            "properties": {
                "res_com": "M3",
                "label": "Quatre Septembre"
            },
            "geometry": {
                "type": "Point",
                "coordinates": [
                    2.336218847521674,
                    48.869585243484515
                ]
            }
        },
        {
            "type": "Feature",
            "properties": {
                "res_com": "M3",
                "label": "Europe"
            },
            "geometry": {
                "type": "Point",
                "coordinates": [
                    2.322265213118896,
                    48.878770368486833
                ]
            }
        },
        {
            "type": "Feature",
            "properties": {
                "res_com": "M4",
                "label": "Porte de Clignancourt"
            },
            "geometry": {
                "type": "Point",
                "coordinates": [
                    2.344847748752398,
                    48.897402222898087
                ]
            }
        },
        {
            "type": "Feature",
            "properties": {
                "res_com": "M3 \/ M4",
                "label": "Réaumur-Sébastopol"
            },
            "geometry": {
                "type": "Point",
                "coordinates": [
                    2.352549304398545,
                    48.866235133000394
                ]
            }
        },
        {
            "type": "Feature",
            "properties": {
                "res_com": "M4 \/ M10",
                "label": "Odéon"
            },
            "geometry": {
                "type": "Point",
                "coordinates": [
                    2.339646335932881,
                    48.852167261116506
                ]
            }
        },
        {
            "type": "Feature",
            "properties": {
                "res_com": "M4",
                "label": "Saint-Sulpice"
            },
            "geometry": {
                "type": "Point",
                "coordinates": [
                    2.331256291370013,
                    48.851672245619895
                ]
            }
        },
        {
            "type": "Feature",
            "properties": {
                "res_com": "M2 \/ M5 \/ M7",
                "label": "Stalingrad"
            },
            "geometry": {
                "type": "Point",
                "coordinates": [
                    2.368912703310147,
                    48.883995220466318
                ]
            }
        },
        {
            "type": "Feature",
            "properties": {
                "res_com": "M5",
                "label": "Jacques Bonsergent"
            },
            "geometry": {
                "type": "Point",
                "coordinates": [
                    2.361027462783641,
                    48.870809983596111
                ]
            }
        },
        {
            "type": "Feature",
            "properties": {
                "res_com": "M9",
                "label": "Saint-Augustin"
            },
            "geometry": {
                "type": "Point",
                "coordinates": [
                    2.321361928104079,
                    48.87455838471093
                ]
            }
        },
        {
            "type": "Feature",
            "properties": {
                "res_com": "M3 \/ M5 \/ M8 \/ M9 \/ M11",
                "label": "République"
            },
            "geometry": {
                "type": "Point",
                "coordinates": [
                    2.363826143977408,
                    48.867503423778842
                ]
            }
        },
        {
            "type": "Feature",
            "properties": {
                "res_com": "M5 \/ M9",
                "label": "Oberkampf"
            },
            "geometry": {
                "type": "Point",
                "coordinates": [
                    2.368496387112846,
                    48.86472762072593
                ]
            }
        },
        {
            "type": "Feature",
            "properties": {
                "res_com": "M9",
                "label": "Charonne"
            },
            "geometry": {
                "type": "Point",
                "coordinates": [
                    2.385563480822886,
                    48.854580499081017
                ]
            }
        },
        {
            "type": "Feature",
            "properties": {
                "res_com": "M9",
                "label": "Mairie de Montreuil"
            },
            "geometry": {
                "type": "Point",
                "coordinates": [
                    2.441310939900038,
                    48.86193691322736
                ]
            }
        },
        {
            "type": "Feature",
            "properties": {
                "res_com": "M10",
                "label": "Mirabeau"
            },
            "geometry": {
                "type": "Point",
                "coordinates": [
                    2.272763753316159,
                    48.847131008196236
                ]
            }
        },
        {
            "type": "Feature",
            "properties": {
                "res_com": "M10",
                "label": "Ségur"
            },
            "geometry": {
                "type": "Point",
                "coordinates": [
                    2.307402240619641,
                    48.847066133152452
                ]
            }
        },
        {
            "type": "Feature",
            "properties": {
                "res_com": "M10",
                "label": "Vaneau"
            },
            "geometry": {
                "type": "Point",
                "coordinates": [
                    2.32125786290546,
                    48.848816372470303
                ]
            }
        },
        {
            "type": "Feature",
            "properties": {
                "res_com": "M10 \/ M12",
                "label": "Sèvres-Babylone"
            },
            "geometry": {
                "type": "Point",
                "coordinates": [
                    2.326935244753162,
                    48.851378829747084
                ]
            }
        },
        {
            "type": "Feature",
            "properties": {
                "res_com": "M10",
                "label": "Maubert Mutualité"
            },
            "geometry": {
                "type": "Point",
                "coordinates": [
                    2.34805429322118,
                    48.850127322912009
                ]
            }
        },
        {
            "type": "Feature",
            "properties": {
                "res_com": "M10",
                "label": "Cardinal Lemoine"
            },
            "geometry": {
                "type": "Point",
                "coordinates": [
                    2.351623256378513,
                    48.846656851250039
                ]
            }
        },
        {
            "type": "Feature",
            "properties": {
                "res_com": "M12",
                "label": "Corentin Celton"
            },
            "geometry": {
                "type": "Point",
                "coordinates": [
                    2.279411682050421,
                    48.827085448896433
                ]
            }
        },
        {
            "type": "Feature",
            "properties": {
                "res_com": "M6 \/ M12",
                "label": "Pasteur"
            },
            "geometry": {
                "type": "Point",
                "coordinates": [
                    2.312607049649865,
                    48.842920619084602
                ]
            }
        },
        {
            "type": "Feature",
            "properties": {
                "res_com": "M12",
                "label": "Assemblée Nationale"
            },
            "geometry": {
                "type": "Point",
                "coordinates": [
                    2.320998191965805,
                    48.860786962627436
                ]
            }
        },
        {
            "type": "Feature",
            "properties": {
                "res_com": "M12",
                "label": "Notre-Dame-de-Lorette"
            },
            "geometry": {
                "type": "Point",
                "coordinates": [
                    2.337886489069273,
                    48.876026211608533
                ]
            }
        },
        {
            "type": "Feature",
            "properties": {
                "res_com": "M12",
                "label": "Lamarck-Caulaincourt"
            },
            "geometry": {
                "type": "Point",
                "coordinates": [
                    2.338760653233254,
                    48.889674075707013
                ]
            }
        },
        {
            "type": "Feature",
            "properties": {
                "res_com": "M13",
                "label": "Mairie de Clichy"
            },
            "geometry": {
                "type": "Point",
                "coordinates": [
                    2.305924149869319,
                    48.903330094573725
                ]
            }
        },
        {
            "type": "Feature",
            "properties": {
                "res_com": "M9 \/ M13",
                "label": "Miromesnil"
            },
            "geometry": {
                "type": "Point",
                "coordinates": [
                    2.314467989568736,
                    48.873685210636353
                ]
            }
        },
        {
            "type": "Feature",
            "properties": {
                "res_com": "M13",
                "label": "Porte de St-Ouen"
            },
            "geometry": {
                "type": "Point",
                "coordinates": [
                    2.328942812779894,
                    48.897374795529522
                ]
            }
        },
        {
            "type": "Feature",
            "properties": {
                "res_com": "M13",
                "label": "Garibaldi"
            },
            "geometry": {
                "type": "Point",
                "coordinates": [
                    2.33183083796241,
                    48.906094050248619
                ]
            }
        },
        {
            "type": "Feature",
            "properties": {
                "res_com": "M7b",
                "label": "Botzaris"
            },
            "geometry": {
                "type": "Point",
                "coordinates": [
                    2.389115807376888,
                    48.879481771912928
                ]
            }
        },
        {
            "type": "Feature",
            "properties": {
                "res_com": "M6 \/ M14",
                "label": "Bercy"
            },
            "geometry": {
                "type": "Point",
                "coordinates": [
                    2.379121776442215,
                    48.840302093377076
                ]
            }
        },
        {
            "type": "Feature",
            "properties": {
                "res_com": "M6",
                "label": "Nationale"
            },
            "geometry": {
                "type": "Point",
                "coordinates": [
                    2.362856399519012,
                    48.833216719709846
                ]
            }
        },
        {
            "type": "Feature",
            "properties": {
                "res_com": "M6",
                "label": "Glacière"
            },
            "geometry": {
                "type": "Point",
                "coordinates": [
                    2.343511657749776,
                    48.831129548026645
                ]
            }
        },
        {
            "type": "Feature",
            "properties": {
                "res_com": "M6",
                "label": "Saint-Jacques"
            },
            "geometry": {
                "type": "Point",
                "coordinates": [
                    2.33713519470604,
                    48.832900815667792
                ]
            }
        },
        {
            "type": "Feature",
            "properties": {
                "res_com": "M7",
                "label": "Pierre et Marie Curie"
            },
            "geometry": {
                "type": "Point",
                "coordinates": [
                    2.377267200151936,
                    48.815930763049217
                ]
            }
        },
        {
            "type": "Feature",
            "properties": {
                "res_com": "M7",
                "label": "Villejuif-Paul Vaillant-Couturier"
            },
            "geometry": {
                "type": "Point",
                "coordinates": [
                    2.368269540049694,
                    48.796483084550523
                ]
            }
        },
        {
            "type": "Feature",
            "properties": {
                "res_com": "M8 \/ M9",
                "label": "Richelieu-Drouot"
            },
            "geometry": {
                "type": "Point",
                "coordinates": [
                    2.340051785735736,
                    48.872013463764766
                ]
            }
        },
        {
            "type": "Feature",
            "properties": {
                "res_com": "M8",
                "label": "Filles du Calvaire"
            },
            "geometry": {
                "type": "Point",
                "coordinates": [
                    2.366661094716491,
                    48.863257944966101
                ]
            }
        },
        {
            "type": "Feature",
            "properties": {
                "res_com": "M8",
                "label": "St-Sébastien Froissart"
            },
            "geometry": {
                "type": "Point",
                "coordinates": [
                    2.367210866411708,
                    48.861168865487805
                ]
            }
        },
        {
            "type": "Feature",
            "properties": {
                "res_com": "M8",
                "label": "Faidherbe-Chaligny"
            },
            "geometry": {
                "type": "Point",
                "coordinates": [
                    2.384092210066296,
                    48.850177861900356
                ]
            }
        },
        {
            "type": "Feature",
            "properties": {
                "res_com": "M8",
                "label": "Maisons-Alfort-Les Juilliottes"
            },
            "geometry": {
                "type": "Point",
                "coordinates": [
                    2.446927484242136,
                    48.802637690718086
                ]
            }
        },
        {
            "type": "Feature",
            "properties": {
                "res_com": "M8",
                "label": "Créteil-L'Échat"
            },
            "geometry": {
                "type": "Point",
                "coordinates": [
                    2.449433175686986,
                    48.796740766583056
                ]
            }
        },
        {
            "type": "Feature",
            "properties": {
                "res_com": "M1",
                "label": "Château de Vincennes"
            },
            "geometry": {
                "type": "Point",
                "coordinates": [
                    2.440439978057246,
                    48.844456394569114
                ]
            }
        },
        {
            "type": "Feature",
            "properties": {
                "res_com": "M1 \/ M8",
                "label": "Reuilly-Diderot"
            },
            "geometry": {
                "type": "Point",
                "coordinates": [
                    2.386808445777995,
                    48.84735451689955
                ]
            }
        },
        {
            "type": "Feature",
            "properties": {
                "res_com": "M1",
                "label": "Les Sablons"
            },
            "geometry": {
                "type": "Point",
                "coordinates": [
                    2.271686721050983,
                    48.881191520586071
                ]
            }
        },
        {
            "type": "Feature",
            "properties": {
                "res_com": "M2",
                "label": "Ménilmontant"
            },
            "geometry": {
                "type": "Point",
                "coordinates": [
                    2.383383250455203,
                    48.866800035098017
                ]
            }
        },
        {
            "type": "Feature",
            "properties": {
                "res_com": "M2",
                "label": "La Chapelle"
            },
            "geometry": {
                "type": "Point",
                "coordinates": [
                    2.360491318526145,
                    48.884398795153338
                ]
            }
        },
        {
            "type": "Feature",
            "properties": {
                "res_com": "M3",
                "label": "Sentier"
            },
            "geometry": {
                "type": "Point",
                "coordinates": [
                    2.347516213278753,
                    48.86730947497152
                ]
            }
        },
        {
            "type": "Feature",
            "properties": {
                "res_com": "M2 \/ M3",
                "label": "Villiers"
            },
            "geometry": {
                "type": "Point",
                "coordinates": [
                    2.315176626220464,
                    48.881150028474686
                ]
            }
        },
        {
            "type": "Feature",
            "properties": {
                "res_com": "M4",
                "label": "Château Rouge"
            },
            "geometry": {
                "type": "Point",
                "coordinates": [
                    2.349694082236433,
                    48.887374907855822
                ]
            }
        },
        {
            "type": "Feature",
            "properties": {
                "res_com": "M4",
                "label": "Saint-Placide"
            },
            "geometry": {
                "type": "Point",
                "coordinates": [
                    2.326792785039299,
                    48.846878237952133
                ]
            }
        },
        {
            "type": "Feature",
            "properties": {
                "res_com": "M5",
                "label": "Hoche"
            },
            "geometry": {
                "type": "Point",
                "coordinates": [
                    2.402352146617702,
                    48.891228594116349
                ]
            }
        },
        {
            "type": "Feature",
            "properties": {
                "res_com": "M5",
                "label": "Bréguet-Sabin"
            },
            "geometry": {
                "type": "Point",
                "coordinates": [
                    2.370209341096383,
                    48.856140712960752
                ]
            }
        },
        {
            "type": "Feature",
            "properties": {
                "res_com": "M5",
                "label": "Quai de la Rapée"
            },
            "geometry": {
                "type": "Point",
                "coordinates": [
                    2.365873466648537,
                    48.846515406876861
                ]
            }
        },
        {
            "type": "Feature",
            "properties": {
                "res_com": "M9",
                "label": "Buzenval"
            },
            "geometry": {
                "type": "Point",
                "coordinates": [
                    2.401022270517142,
                    48.851812133001964
                ]
            }
        },
        {
            "type": "Feature",
            "properties": {
                "res_com": "M10",
                "label": "Av. Émile Zola"
            },
            "geometry": {
                "type": "Point",
                "coordinates": [
                    2.295420478027581,
                    48.847019581880978
                ]
            }
        },
        {
            "type": "Feature",
            "properties": {
                "res_com": "M10",
                "label": "Mabillon"
            },
            "geometry": {
                "type": "Point",
                "coordinates": [
                    2.33550205037626,
                    48.85301676701031
                ]
            }
        },
        {
            "type": "Feature",
            "properties": {
                "res_com": "M7 \/ M10",
                "label": "Jussieu"
            },
            "geometry": {
                "type": "Point",
                "coordinates": [
                    2.354917983696272,
                    48.846151123080602
                ]
            }
        },
        {
            "type": "Feature",
            "properties": {
                "res_com": "M11",
                "label": "Mairie des Lilas"
            },
            "geometry": {
                "type": "Point",
                "coordinates": [
                    2.416479643671439,
                    48.879761253997202
                ]
            }
        },
        {
            "type": "Feature",
            "properties": {
                "res_com": "M11",
                "label": "Pyrénées"
            },
            "geometry": {
                "type": "Point",
                "coordinates": [
                    2.385316215101792,
                    48.873881854158157
                ]
            }
        },
        {
            "type": "Feature",
            "properties": {
                "res_com": "M2 \/ M11",
                "label": "Belleville"
            },
            "geometry": {
                "type": "Point",
                "coordinates": [
                    2.377029776704534,
                    48.871993691760203
                ]
            }
        },
        {
            "type": "Feature",
            "properties": {
                "res_com": "M1 \/ M4 \/ M7 \/ M11 \/ M14",
                "label": "Châtelet"
            },
            "geometry": {
                "type": "Point",
                "coordinates": [
                    2.347625155718968,
                    48.858061862276969
                ]
            }
        },
        {
            "type": "Feature",
            "properties": {
                "res_com": "M12",
                "label": "Convention"
            },
            "geometry": {
                "type": "Point",
                "coordinates": [
                    2.296630337820979,
                    48.837307491852258
                ]
            }
        },
        {
            "type": "Feature",
            "properties": {
                "res_com": "M12",
                "label": "Rennes"
            },
            "geometry": {
                "type": "Point",
                "coordinates": [
                    2.327782127147534,
                    48.848457848541784
                ]
            }
        },
        {
            "type": "Feature",
            "properties": {
                "res_com": "M12",
                "label": "Saint-Georges"
            },
            "geometry": {
                "type": "Point",
                "coordinates": [
                    2.337595080070613,
                    48.878425259412076
                ]
            }
        },
        {
            "type": "Feature",
            "properties": {
                "res_com": "M14",
                "label": "Cour St-Émilion"
            },
            "geometry": {
                "type": "Point",
                "coordinates": [
                    2.386632402066985,
                    48.833338559251672
                ]
            }
        },
        {
            "type": "Feature",
            "properties": {
                "res_com": "M13",
                "label": "Malakoff-Rue Étienne Dolet"
            },
            "geometry": {
                "type": "Point",
                "coordinates": [
                    2.297077796960862,
                    48.815307532099553
                ]
            }
        },
        {
            "type": "Feature",
            "properties": {
                "res_com": "M13",
                "label": "Liège"
            },
            "geometry": {
                "type": "Point",
                "coordinates": [
                    2.327022200889503,
                    48.879634760656806
                ]
            }
        },
        {
            "type": "Feature",
            "properties": {
                "res_com": "M13",
                "label": "Mairie de Saint-Ouen"
            },
            "geometry": {
                "type": "Point",
                "coordinates": [
                    2.333924890479715,
                    48.911964897880885
                ]
            }
        },
        {
            "type": "Feature",
            "properties": {
                "res_com": "M13",
                "label": "Carrefour Pleyel"
            },
            "geometry": {
                "type": "Point",
                "coordinates": [
                    2.343305927806373,
                    48.9195730722451
                ]
            }
        },
        {
            "type": "Feature",
            "properties": {
                "res_com": "M5 \/ M6 \/ M7",
                "label": "Place d'Italie"
            },
            "geometry": {
                "type": "Point",
                "coordinates": [
                    2.355834897965553,
                    48.830995301304384
                ]
            }
        },
        {
            "type": "Feature",
            "properties": {
                "res_com": "M6",
                "label": "Dupleix"
            },
            "geometry": {
                "type": "Point",
                "coordinates": [
                    2.293612434438138,
                    48.850434550795896
                ]
            }
        },
        {
            "type": "Feature",
            "properties": {
                "res_com": "M6",
                "label": "Passy"
            },
            "geometry": {
                "type": "Point",
                "coordinates": [
                    2.285812444134081,
                    48.857448690975104
                ]
            }
        },
        {
            "type": "Feature",
            "properties": {
                "res_com": "M6",
                "label": "Kléber"
            },
            "geometry": {
                "type": "Point",
                "coordinates": [
                    2.293524290341821,
                    48.871649769143531
                ]
            }
        },
        {
            "type": "Feature",
            "properties": {
                "res_com": "M7",
                "label": "Fort d'Aubervilliers"
            },
            "geometry": {
                "type": "Point",
                "coordinates": [
                    2.404409088781864,
                    48.914949757276219
                ]
            }
        },
        {
            "type": "Feature",
            "properties": {
                "res_com": "M7",
                "label": "Château-Landon"
            },
            "geometry": {
                "type": "Point",
                "coordinates": [
                    2.362160070559614,
                    48.878565625792334
                ]
            }
        },
        {
            "type": "Feature",
            "properties": {
                "res_com": "M7",
                "label": "Poissonnière"
            },
            "geometry": {
                "type": "Point",
                "coordinates": [
                    2.349293901112603,
                    48.877236319129189
                ]
            }
        },
        {
            "type": "Feature",
            "properties": {
                "res_com": "M7 \/ M14",
                "label": "Pyramides"
            },
            "geometry": {
                "type": "Point",
                "coordinates": [
                    2.334427485913044,
                    48.86576110282936
                ]
            }
        },
        {
            "type": "Feature",
            "properties": {
                "res_com": "M7",
                "label": "Censier-Daubenton"
            },
            "geometry": {
                "type": "Point",
                "coordinates": [
                    2.351739487166927,
                    48.840486652641196
                ]
            }
        },
        {
            "type": "Feature",
            "properties": {
                "res_com": "M7",
                "label": "Maison Blanche"
            },
            "geometry": {
                "type": "Point",
                "coordinates": [
                    2.358473883887533,
                    48.822437831887527
                ]
            }
        },
        {
            "type": "Feature",
            "properties": {
                "res_com": "M8",
                "label": "École Militaire"
            },
            "geometry": {
                "type": "Point",
                "coordinates": [
                    2.306097403704285,
                    48.854682156887741
                ]
            }
        },
        {
            "type": "Feature",
            "properties": {
                "res_com": "M8",
                "label": "La Tour Maubourg"
            },
            "geometry": {
                "type": "Point",
                "coordinates": [
                    2.310565960946846,
                    48.857725412893451
                ]
            }
        },
        {
            "type": "Feature",
            "properties": {
                "res_com": "M8 \/ M9",
                "label": "Grands Boulevards"
            },
            "geometry": {
                "type": "Point",
                "coordinates": [
                    2.343154773075233,
                    48.871497739350033
                ]
            }
        },
        {
            "type": "Feature",
            "properties": {
                "res_com": "M8 \/ M9",
                "label": "Bonne Nouvelle"
            },
            "geometry": {
                "type": "Point",
                "coordinates": [
                    2.350497971863092,
                    48.870164200900561
                ]
            }
        },
        {
            "type": "Feature",
            "properties": {
                "res_com": "M9",
                "label": "Pont de Sèvres"
            },
            "geometry": {
                "type": "Point",
                "coordinates": [
                    2.230799591317221,
                    48.829674843838752
                ]
            }
        },
        {
            "type": "Feature",
            "properties": {
                "res_com": "M1 \/ M11",
                "label": "Hôtel de Ville"
            },
            "geometry": {
                "type": "Point",
                "coordinates": [
                    2.351292209334574,
                    48.857551553296517
                ]
            }
        },
        {
            "type": "Feature",
            "properties": {
                "res_com": "M1",
                "label": "Pont de Neuilly"
            },
            "geometry": {
                "type": "Point",
                "coordinates": [
                    2.260515077888117,
                    48.884708201322532
                ]
            }
        },
        {
            "type": "Feature",
            "properties": {
                "res_com": "M2",
                "label": "Avron"
            },
            "geometry": {
                "type": "Point",
                "coordinates": [
                    2.398302344267162,
                    48.851510278164362
                ]
            }
        },
        {
            "type": "Feature",
            "properties": {
                "res_com": "M2",
                "label": "Blanche"
            },
            "geometry": {
                "type": "Point",
                "coordinates": [
                    2.331926589533002,
                    48.883958572609835
                ]
            }
        },
        {
            "type": "Feature",
            "properties": {
                "res_com": "M2",
                "label": "Courcelles"
            },
            "geometry": {
                "type": "Point",
                "coordinates": [
                    2.303528725370108,
                    48.879214134245586
                ]
            }
        },
        {
            "type": "Feature",
            "properties": {
                "res_com": "M3",
                "label": "Gallieni"
            },
            "geometry": {
                "type": "Point",
                "coordinates": [
                    2.41669727285771,
                    48.865335317260985
                ]
            }
        },
        {
            "type": "Feature",
            "properties": {
                "res_com": "M3",
                "label": "Bourse"
            },
            "geometry": {
                "type": "Point",
                "coordinates": [
                    2.340720723674097,
                    48.868695977842876
                ]
            }
        },
        {
            "type": "Feature",
            "properties": {
                "res_com": "M3",
                "label": "Wagram"
            },
            "geometry": {
                "type": "Point",
                "coordinates": [
                    2.304674440528396,
                    48.883809201233376
                ]
            }
        },
        {
            "type": "Feature",
            "properties": {
                "res_com": "M3",
                "label": "Porte de Champerret"
            },
            "geometry": {
                "type": "Point",
                "coordinates": [
                    2.292582314102913,
                    48.885793105231002
                ]
            }
        },
        {
            "type": "Feature",
            "properties": {
                "res_com": "M3",
                "label": "Anatole France"
            },
            "geometry": {
                "type": "Point",
                "coordinates": [
                    2.285009502746195,
                    48.892082785974793
                ]
            }
        },
        {
            "type": "Feature",
            "properties": {
                "res_com": "M4",
                "label": "Simplon"
            },
            "geometry": {
                "type": "Point",
                "coordinates": [
                    2.347765501718976,
                    48.893941388029113
                ]
            }
        },
        {
            "type": "Feature",
            "properties": {
                "res_com": "M4",
                "label": "Château d'Eau"
            },
            "geometry": {
                "type": "Point",
                "coordinates": [
                    2.356044907694412,
                    48.872424912690441
                ]
            }
        },
        {
            "type": "Feature",
            "properties": {
                "res_com": "M4",
                "label": "Alésia"
            },
            "geometry": {
                "type": "Point",
                "coordinates": [
                    2.327164649607824,
                    48.828188476313507
                ]
            }
        },
        {
            "type": "Feature",
            "properties": {
                "res_com": "M5",
                "label": "Bobigny-Pantin - Raymond Queneau"
            },
            "geometry": {
                "type": "Point",
                "coordinates": [
                    2.425326891530144,
                    48.895454673059255
                ]
            }
        },
        {
            "type": "Feature",
            "properties": {
                "res_com": "M5",
                "label": "Ourcq"
            },
            "geometry": {
                "type": "Point",
                "coordinates": [
                    2.386960017135177,
                    48.887134869076554
                ]
            }
        },
        {
            "type": "Feature",
            "properties": {
                "res_com": "M5",
                "label": "Laumière"
            },
            "geometry": {
                "type": "Point",
                "coordinates": [
                    2.3796630815606,
                    48.885216183015046
                ]
            }
        },
        {
            "type": "Feature",
            "properties": {
                "res_com": "M5",
                "label": "Richard Lenoir"
            },
            "geometry": {
                "type": "Point",
                "coordinates": [
                    2.371913978759671,
                    48.859873621665599
                ]
            }
        },
        {
            "type": "Feature",
            "properties": {
                "res_com": "M1 \/ M5 \/ M8",
                "label": "Bastille"
            },
            "geometry": {
                "type": "Point",
                "coordinates": [
                    2.368736572626169,
                    48.853436962301636
                ]
            }
        },
        {
            "type": "Feature",
            "properties": {
                "res_com": "M1 \/ M7",
                "label": "Palais Royal-Musée du Louvre"
            },
            "geometry": {
                "type": "Point",
                "coordinates": [
                    2.336684170000452,
                    48.862595536772766
                ]
            }
        },
        {
            "type": "Feature",
            "properties": {
                "res_com": "M9",
                "label": "La Muette"
            },
            "geometry": {
                "type": "Point",
                "coordinates": [
                    2.27415462837367,
                    48.858046055376207
                ]
            }
        },
        {
            "type": "Feature",
            "properties": {
                "res_com": "M6 \/ M9",
                "label": "Trocadéro"
            },
            "geometry": {
                "type": "Point",
                "coordinates": [
                    2.287166875502503,
                    48.863073782225257
                ]
            }
        },
        {
            "type": "Feature",
            "properties": {
                "res_com": "M9",
                "label": "Alma-Marceau"
            },
            "geometry": {
                "type": "Point",
                "coordinates": [
                    2.300991003495585,
                    48.864766844971768
                ]
            }
        },
        {
            "type": "Feature",
            "properties": {
                "res_com": "M9",
                "label": "Saint-Philippe du Roule"
            },
            "geometry": {
                "type": "Point",
                "coordinates": [
                    2.310038344619937,
                    48.872422383651013
                ]
            }
        },
        {
            "type": "Feature",
            "properties": {
                "res_com": "M4 \/ M8 \/ M9",
                "label": "Strasbourg-Saint-Denis"
            },
            "geometry": {
                "type": "Point",
                "coordinates": [
                    2.354280879075376,
                    48.86929400766136
                ]
            }
        },
        {
            "type": "Feature",
            "properties": {
                "res_com": "M9",
                "label": "Voltaire"
            },
            "geometry": {
                "type": "Point",
                "coordinates": [
                    2.38071878585627,
                    48.857453722681321
                ]
            }
        },
        {
            "type": "Feature",
            "properties": {
                "res_com": "M10",
                "label": "Boulogne-Pont de Saint-Cloud"
            },
            "geometry": {
                "type": "Point",
                "coordinates": [
                    2.228536981504942,
                    48.840745015226894
                ]
            }
        },
        {
            "type": "Feature",
            "properties": {
                "res_com": "M9 \/ M10",
                "label": "Michel-Ange-Auteuil"
            },
            "geometry": {
                "type": "Point",
                "coordinates": [
                    2.264130426738311,
                    48.84794309720084
                ]
            }
        },
        {
            "type": "Feature",
            "properties": {
                "res_com": "M10",
                "label": "Chardon-Lagache"
            },
            "geometry": {
                "type": "Point",
                "coordinates": [
                    2.266441540369508,
                    48.845204702673513
                ]
            }
        },
        {
            "type": "Feature",
            "properties": {
                "res_com": "M11",
                "label": "Rambuteau"
            },
            "geometry": {
                "type": "Point",
                "coordinates": [
                    2.353495740128163,
                    48.861204990323024
                ]
            }
        },
        {
            "type": "Feature",
            "properties": {
                "res_com": "M12",
                "label": "Vaugirard"
            },
            "geometry": {
                "type": "Point",
                "coordinates": [
                    2.301107514879988,
                    48.839516585394527
                ]
            }
        },
        {
            "type": "Feature",
            "properties": {
                "res_com": "M12",
                "label": "Falguière"
            },
            "geometry": {
                "type": "Point",
                "coordinates": [
                    2.317852783041332,
                    48.844470141295858
                ]
            }
        },
        {
            "type": "Feature",
            "properties": {
                "res_com": "M4 \/ M12",
                "label": "Marcadet-Poissonniers"
            },
            "geometry": {
                "type": "Point",
                "coordinates": [
                    2.349728897262871,
                    48.891480910596364
                ]
            }
        },
        {
            "type": "Feature",
            "properties": {
                "res_com": "M12",
                "label": "Marx Dormoy"
            },
            "geometry": {
                "type": "Point",
                "coordinates": [
                    2.359995766383568,
                    48.890485455645859
                ]
            }
        },
        {
            "type": "Feature",
            "properties": {
                "res_com": "M13",
                "label": "Gabriel Péri"
            },
            "geometry": {
                "type": "Point",
                "coordinates": [
                    2.294685111702555,
                    48.916382309922099
                ]
            }
        },
        {
            "type": "Feature",
            "properties": {
                "res_com": "M13",
                "label": "Plaisance"
            },
            "geometry": {
                "type": "Point",
                "coordinates": [
                    2.314122323470855,
                    48.8318256495863
                ]
            }
        },
        {
            "type": "Feature",
            "properties": {
                "res_com": "M13",
                "label": "Pernéty"
            },
            "geometry": {
                "type": "Point",
                "coordinates": [
                    2.318078284129665,
                    48.833936392643025
                ]
            }
        },
        {
            "type": "Feature",
            "properties": {
                "res_com": "M13",
                "label": "Gaîté"
            },
            "geometry": {
                "type": "Point",
                "coordinates": [
                    2.322491748450549,
                    48.838631647136459
                ]
            }
        },
        {
            "type": "Feature",
            "properties": {
                "res_com": "M7b",
                "label": "Pré Saint-Gervais"
            },
            "geometry": {
                "type": "Point",
                "coordinates": [
                    2.398946662455969,
                    48.879995794367346
                ]
            }
        },
        {
            "type": "Feature",
            "properties": {
                "res_com": "M7b",
                "label": "Bolivar"
            },
            "geometry": {
                "type": "Point",
                "coordinates": [
                    2.374147153839052,
                    48.880821261376127
                ]
            }
        },
        {
            "type": "Feature",
            "properties": {
                "res_com": "M2 \/ M5 \/ M7b",
                "label": "Jaurès"
            },
            "geometry": {
                "type": "Point",
                "coordinates": [
                    2.370122312281105,
                    48.882738132784247
                ]
            }
        },
        {
            "type": "Feature",
            "properties": {
                "res_com": "M5",
                "label": "Campo-Formio"
            },
            "geometry": {
                "type": "Point",
                "coordinates": [
                    2.358823490437187,
                    48.835495357188535
                ]
            }
        },
        {
            "type": "Feature",
            "properties": {
                "res_com": "M6 \/ M8",
                "label": "Daumesnil"
            },
            "geometry": {
                "type": "Point",
                "coordinates": [
                    2.395952926588724,
                    48.839567198337505
                ]
            }
        },
        {
            "type": "Feature",
            "properties": {
                "res_com": "M6",
                "label": "Dugommier"
            },
            "geometry": {
                "type": "Point",
                "coordinates": [
                    2.389620015423847,
                    48.83904114372092
                ]
            }
        },
        {
            "type": "Feature",
            "properties": {
                "res_com": "M6",
                "label": "Quai de la Gare"
            },
            "geometry": {
                "type": "Point",
                "coordinates": [
                    2.372825724542572,
                    48.837045120157924
                ]
            }
        },
        {
            "type": "Feature",
            "properties": {
                "res_com": "M6",
                "label": "Edgar Quinet"
            },
            "geometry": {
                "type": "Point",
                "coordinates": [
                    2.326384610792847,
                    48.840663229299565
                ]
            }
        },
        {
            "type": "Feature",
            "properties": {
                "res_com": "M6",
                "label": "Sèvres-Lecourbe"
            },
            "geometry": {
                "type": "Point",
                "coordinates": [
                    2.309531492823514,
                    48.845626966755042
                ]
            }
        },
        {
            "type": "Feature",
            "properties": {
                "res_com": "M6",
                "label": "Cambronne"
            },
            "geometry": {
                "type": "Point",
                "coordinates": [
                    2.302968296454798,
                    48.847507081988873
                ]
            }
        },
        {
            "type": "Feature",
            "properties": {
                "res_com": "M6",
                "label": "Boissière"
            },
            "geometry": {
                "type": "Point",
                "coordinates": [
                    2.290058833580487,
                    48.866983109449478
                ]
            }
        },
        {
            "type": "Feature",
            "properties": {
                "res_com": "M7",
                "label": "Aubervilliers Pantin Quatre Chemins"
            },
            "geometry": {
                "type": "Point",
                "coordinates": [
                    2.39228705963185,
                    48.903759931070141
                ]
            }
        },
        {
            "type": "Feature",
            "properties": {
                "res_com": "M7 \/ M7b",
                "label": "Louis Blanc"
            },
            "geometry": {
                "type": "Point",
                "coordinates": [
                    2.36592103710407,
                    48.881584251008249
                ]
            }
        },
        {
            "type": "Feature",
            "properties": {
                "res_com": "M7",
                "label": "Les Gobelins"
            },
            "geometry": {
                "type": "Point",
                "coordinates": [
                    2.352588922866105,
                    48.835863487762389
                ]
            }
        },
        {
            "type": "Feature",
            "properties": {
                "res_com": "M7",
                "label": "Mairie d'Ivry"
            },
            "geometry": {
                "type": "Point",
                "coordinates": [
                    2.383551479649113,
                    48.811099197711528
                ]
            }
        },
        {
            "type": "Feature",
            "properties": {
                "res_com": "M7",
                "label": "Le Kremlin-Bicêtre"
            },
            "geometry": {
                "type": "Point",
                "coordinates": [
                    2.362263387127349,
                    48.810129957273929
                ]
            }
        },
        {
            "type": "Feature",
            "properties": {
                "res_com": "M8",
                "label": "Lourmel"
            },
            "geometry": {
                "type": "Point",
                "coordinates": [
                    2.282700027239131,
                    48.838960939372015
                ]
            }
        },
        {
            "type": "Feature",
            "properties": {
                "res_com": "M8",
                "label": "Félix Faure"
            },
            "geometry": {
                "type": "Point",
                "coordinates": [
                    2.291912413317875,
                    48.842746779792876
                ]
            }
        },
        {
            "type": "Feature",
            "properties": {
                "res_com": "M8",
                "label": "Commerce"
            },
            "geometry": {
                "type": "Point",
                "coordinates": [
                    2.293951963636534,
                    48.844794764611088
                ]
            }
        },
        {
            "type": "Feature",
            "properties": {
                "res_com": "M8",
                "label": "Chemin Vert"
            },
            "geometry": {
                "type": "Point",
                "coordinates": [
                    2.368108290701383,
                    48.857420037547151
                ]
            }
        },
        {
            "type": "Feature",
            "properties": {
                "res_com": "M8",
                "label": "Ledru-Rollin"
            },
            "geometry": {
                "type": "Point",
                "coordinates": [
                    2.376118774702071,
                    48.851271126372332
                ]
            }
        },
        {
            "type": "Feature",
            "properties": {
                "res_com": "M8",
                "label": "Charenton-Écoles"
            },
            "geometry": {
                "type": "Point",
                "coordinates": [
                    2.413737516154775,
                    48.821595767315046
                ]
            }
        },
        {
            "type": "Feature",
            "properties": {
                "res_com": "M8",
                "label": "Créteil-Université"
            },
            "geometry": {
                "type": "Point",
                "coordinates": [
                    2.450453177915302,
                    48.789978310348928
                ]
            }
        },
        {
            "type": "Feature",
            "properties": {
                "res_com": "M8",
                "label": "Créteil-Préfecture"
            },
            "geometry": {
                "type": "Point",
                "coordinates": [
                    2.459368396259053,
                    48.77990531695967
                ]
            }
        },
        {
            "type": "Feature",
            "properties": {
                "res_com": "M9",
                "label": "Marcel Sembat"
            },
            "geometry": {
                "type": "Point",
                "coordinates": [
                    2.243840595091187,
                    48.833708850020479
                ]
            }
        },
        {
            "type": "Feature",
            "properties": {
                "res_com": "M1",
                "label": "Bérault"
            },
            "geometry": {
                "type": "Point",
                "coordinates": [
                    2.428010396293927,
                    48.845579067136661
                ]
            }
        },
        {
            "type": "Feature",
            "properties": {
                "res_com": "M1",
                "label": "Saint-Paul"
            },
            "geometry": {
                "type": "Point",
                "coordinates": [
                    2.360956488661,
                    48.855236252795095
                ]
            }
        },
        {
            "type": "Feature",
            "properties": {
                "res_com": "M1",
                "label": "Tuileries"
            },
            "geometry": {
                "type": "Point",
                "coordinates": [
                    2.330129877112861,
                    48.864343778733911
                ]
            }
        },
        {
            "type": "Feature",
            "properties": {
                "res_com": "M1 \/ M13",
                "label": "Champs-Elysées-Clémenceau"
            },
            "geometry": {
                "type": "Point",
                "coordinates": [
                    2.31388193768216,
                    48.867799734455403
                ]
            }
        },
        {
            "type": "Feature",
            "properties": {
                "res_com": "M1",
                "label": "Esplanade de la Défense"
            },
            "geometry": {
                "type": "Point",
                "coordinates": [
                    2.247932435324862,
                    48.888631217771177
                ]
            }
        },
        {
            "type": "Feature",
            "properties": {
                "res_com": "M2",
                "label": "Alexandre Dumas"
            },
            "geometry": {
                "type": "Point",
                "coordinates": [
                    2.394561944560314,
                    48.856377357181543
                ]
            }
        },
        {
            "type": "Feature",
            "properties": {
                "res_com": "M2",
                "label": "Philippe Auguste"
            },
            "geometry": {
                "type": "Point",
                "coordinates": [
                    2.389729852353504,
                    48.858466549433743
                ]
            }
        },
        {
            "type": "Feature",
            "properties": {
                "res_com": "M2",
                "label": "Colonel Fabien"
            },
            "geometry": {
                "type": "Point",
                "coordinates": [
                    2.370811395312745,
                    48.877610187417851
                ]
            }
        },
        {
            "type": "Feature",
            "properties": {
                "res_com": "M2",
                "label": "Porte Dauphine"
            },
            "geometry": {
                "type": "Point",
                "coordinates": [
                    2.277083017052586,
                    48.871466578127652
                ]
            }
        },
        {
            "type": "Feature",
            "properties": {
                "res_com": "M3",
                "label": "Rue Saint-Maur"
            },
            "geometry": {
                "type": "Point",
                "coordinates": [
                    2.380797986183677,
                    48.864086574750985
                ]
            }
        },
        {
            "type": "Feature",
            "properties": {
                "res_com": "M3",
                "label": "Temple"
            },
            "geometry": {
                "type": "Point",
                "coordinates": [
                    2.361541532068171,
                    48.866682680241318
                ]
            }
        },
        {
            "type": "Feature",
            "properties": {
                "res_com": "M11",
                "label": "Arts et Métiers"
            },
            "geometry": {
                "type": "Point",
                "coordinates": [
                    2.356736756806098,
                    48.865586477599692
                ]
            }
        },
        {
            "type": "Feature",
            "properties": {
                "res_com": "M3",
                "label": "Pont de Levallois-Bécon"
            },
            "geometry": {
                "type": "Point",
                "coordinates": [
                    2.279809586693102,
                    48.897821067111323
                ]
            }
        },
        {
            "type": "Feature",
            "properties": {
                "res_com": "M4",
                "label": "Étienne Marcel"
            },
            "geometry": {
                "type": "Point",
                "coordinates": [
                    2.348880656666388,
                    48.863807438702779
                ]
            }
        },
        {
            "type": "Feature",
            "properties": {
                "res_com": "M4",
                "label": "Cité"
            },
            "geometry": {
                "type": "Point",
                "coordinates": [
                    2.347321318407715,
                    48.854936380164673
                ]
            }
        },
        {
            "type": "Feature",
            "properties": {
                "res_com": "M4 \/ M6",
                "label": "Raspail"
            },
            "geometry": {
                "type": "Point",
                "coordinates": [
                    2.330754192086216,
                    48.838964280710556
                ]
            }
        },
        {
            "type": "Feature",
            "properties": {
                "res_com": "M5",
                "label": "Église de Pantin"
            },
            "geometry": {
                "type": "Point",
                "coordinates": [
                    2.41331313951059,
                    48.893257589973892
                ]
            }
        },
        {
            "type": "Feature",
            "properties": {
                "res_com": "M5",
                "label": "Saint-Marcel"
            },
            "geometry": {
                "type": "Point",
                "coordinates": [
                    2.360967166347492,
                    48.838427296060978
                ]
            }
        },
        {
            "type": "Feature",
            "properties": {
                "res_com": "M9",
                "label": "Rue de la Pompe"
            },
            "geometry": {
                "type": "Point",
                "coordinates": [
                    2.278112562536507,
                    48.863974445807578
                ]
            }
        },
        {
            "type": "Feature",
            "properties": {
                "res_com": "M9",
                "label": "Iéna"
            },
            "geometry": {
                "type": "Point",
                "coordinates": [
                    2.294162014031211,
                    48.864794064892159
                ]
            }
        },
        {
            "type": "Feature",
            "properties": {
                "res_com": "M1 \/ M9",
                "label": "Franklin-D.Roosevelt"
            },
            "geometry": {
                "type": "Point",
                "coordinates": [
                    2.309935388712292,
                    48.869026527272908
                ]
            }
        },
        {
            "type": "Feature",
            "properties": {
                "res_com": "M9",
                "label": "Rue des Boulets"
            },
            "geometry": {
                "type": "Point",
                "coordinates": [
                    2.389378127918613,
                    48.852315427399169
                ]
            }
        },
        {
            "type": "Feature",
            "properties": {
                "res_com": "M9",
                "label": "Robespierre"
            },
            "geometry": {
                "type": "Point",
                "coordinates": [
                    2.422983216145875,
                    48.855726428633155
                ]
            }
        },
        {
            "type": "Feature",
            "properties": {
                "res_com": "M9",
                "label": "Croix de Chavaux"
            },
            "geometry": {
                "type": "Point",
                "coordinates": [
                    2.43555571977294,
                    48.857965592084589
                ]
            }
        },
        {
            "type": "Feature",
            "properties": {
                "res_com": "M10",
                "label": "Église d'Auteuil"
            },
            "geometry": {
                "type": "Point",
                "coordinates": [
                    2.269135872730268,
                    48.847150055709768
                ]
            }
        },
        {
            "type": "Feature",
            "properties": {
                "res_com": "M10",
                "label": "Porte d'Auteuil"
            },
            "geometry": {
                "type": "Point",
                "coordinates": [
                    2.257744680376012,
                    48.847971540597712
                ]
            }
        },
        {
            "type": "Feature",
            "properties": {
                "res_com": "M9 \/ M10",
                "label": "Michel-Ange-Molitor"
            },
            "geometry": {
                "type": "Point",
                "coordinates": [
                    2.261893641759714,
                    48.845241194840931
                ]
            }
        },
        {
            "type": "Feature",
            "properties": {
                "res_com": "M10",
                "label": "Charles Michels"
            },
            "geometry": {
                "type": "Point",
                "coordinates": [
                    2.285999222059007,
                    48.846534636731192
                ]
            }
        },
        {
            "type": "Feature",
            "properties": {
                "res_com": "M11",
                "label": "Goncourt"
            },
            "geometry": {
                "type": "Point",
                "coordinates": [
                    2.371094839731201,
                    48.86995751270301
                ]
            }
        },
        {
            "type": "Feature",
            "properties": {
                "res_com": "M12",
                "label": "Volontaires"
            },
            "geometry": {
                "type": "Point",
                "coordinates": [
                    2.307948679336751,
                    48.841505522367953
                ]
            }
        },
        {
            "type": "Feature",
            "properties": {
                "res_com": "M12",
                "label": "Notre-Dame-des-Champs"
            },
            "geometry": {
                "type": "Point",
                "coordinates": [
                    2.328778025504361,
                    48.844942635216889
                ]
            }
        },
        {
            "type": "Feature",
            "properties": {
                "res_com": "M12",
                "label": "Rue du Bac"
            },
            "geometry": {
                "type": "Point",
                "coordinates": [
                    2.325712422170927,
                    48.85555094016533
                ]
            }
        },
        {
            "type": "Feature",
            "properties": {
                "res_com": "M12",
                "label": "Solférino"
            },
            "geometry": {
                "type": "Point",
                "coordinates": [
                    2.323154855841107,
                    48.858511129873783
                ]
            }
        },
        {
            "type": "Feature",
            "properties": {
                "res_com": "M13",
                "label": "Malakoff-Plateau de Vanves"
            },
            "geometry": {
                "type": "Point",
                "coordinates": [
                    2.298464194670264,
                    48.822583708652338
                ]
            }
        },
        {
            "type": "Feature",
            "properties": {
                "res_com": "M13",
                "label": "Saint-François-Xavier"
            },
            "geometry": {
                "type": "Point",
                "coordinates": [
                    2.314408121448823,
                    48.851441709238898
                ]
            }
        },
        {
            "type": "Feature",
            "properties": {
                "res_com": "M13",
                "label": "Guy Môquet"
            },
            "geometry": {
                "type": "Point",
                "coordinates": [
                    2.327428458503176,
                    48.892828853389169
                ]
            }
        },
        {
            "type": "Feature",
            "properties": {
                "res_com": "M13",
                "label": "Saint-Denis-Université"
            },
            "geometry": {
                "type": "Point",
                "coordinates": [
                    2.36454176212131,
                    48.945845657758504
                ]
            }
        },
        {
            "type": "Feature",
            "properties": {
                "res_com": "M3b",
                "label": "Pelleport"
            },
            "geometry": {
                "type": "Point",
                "coordinates": [
                    2.401561712742541,
                    48.868440163275473
                ]
            }
        },
        {
            "type": "Feature",
            "properties": {
                "res_com": "M7b",
                "label": "Danube"
            },
            "geometry": {
                "type": "Point",
                "coordinates": [
                    2.393445452389287,
                    48.88193199960677
                ]
            }
        },
        {
            "type": "Feature",
            "properties": {
                "res_com": "M6",
                "label": "Picpus"
            },
            "geometry": {
                "type": "Point",
                "coordinates": [
                    2.401289019827348,
                    48.845061579944897
                ]
            }
        },
        {
            "type": "Feature",
            "properties": {
                "res_com": "M6",
                "label": "Bel-Air"
            },
            "geometry": {
                "type": "Point",
                "coordinates": [
                    2.400918536800477,
                    48.841338247333518
                ]
            }
        },
        {
            "type": "Feature",
            "properties": {
                "res_com": "M6 \/ M8 \/ M10",
                "label": "La Motte Picquet Grenelle"
            },
            "geometry": {
                "type": "Point",
                "coordinates": [
                    2.297916591840311,
                    48.849064563474911
                ]
            }
        },
        {
            "type": "Feature",
            "properties": {
                "res_com": "M6",
                "label": "Bir-Hakeim"
            },
            "geometry": {
                "type": "Point",
                "coordinates": [
                    2.289334532778807,
                    48.853942606213778
                ]
            }
        },
        {
            "type": "Feature",
            "properties": {
                "res_com": "M7",
                "label": "Corentin Cariou"
            },
            "geometry": {
                "type": "Point",
                "coordinates": [
                    2.38252234342603,
                    48.894836467502465
                ]
            }
        },
        {
            "type": "Feature",
            "properties": {
                "res_com": "M7",
                "label": "Crimée"
            },
            "geometry": {
                "type": "Point",
                "coordinates": [
                    2.377315755595574,
                    48.890788969528437
                ]
            }
        },
        {
            "type": "Feature",
            "properties": {
                "res_com": "M7",
                "label": "Riquet"
            },
            "geometry": {
                "type": "Point",
                "coordinates": [
                    2.374204016083614,
                    48.888267620588941
                ]
            }
        },
        {
            "type": "Feature",
            "properties": {
                "res_com": "M7",
                "label": "Sully-Morland"
            },
            "geometry": {
                "type": "Point",
                "coordinates": [
                    2.361985226391106,
                    48.851237607092429
                ]
            }
        },
        {
            "type": "Feature",
            "properties": {
                "res_com": "M7",
                "label": "Villejuif-Léo Lagrange"
            },
            "geometry": {
                "type": "Point",
                "coordinates": [
                    2.363953196602166,
                    48.804688120911365
                ]
            }
        },
        {
            "type": "Feature",
            "properties": {
                "res_com": "M8",
                "label": "Boucicaut"
            },
            "geometry": {
                "type": "Point",
                "coordinates": [
                    2.287945766499665,
                    48.841094056349597
                ]
            }
        },
        {
            "type": "Feature",
            "properties": {
                "res_com": "M8",
                "label": "Liberté"
            },
            "geometry": {
                "type": "Point",
                "coordinates": [
                    2.406742223173149,
                    48.826054999232433
                ]
            }
        },
        {
            "type": "Feature",
            "properties": {
                "res_com": "M8",
                "label": "École Vétérinaire de Maisons-Alfort"
            },
            "geometry": {
                "type": "Point",
                "coordinates": [
                    2.422376142845623,
                    48.814803007000464
                ]
            }
        },
        {
            "type": "Feature",
            "properties": {
                "res_com": "M8",
                "label": "Maisons-Alfort-Stade"
            },
            "geometry": {
                "type": "Point",
                "coordinates": [
                    2.434509895933692,
                    48.809144360936045
                ]
            }
        },
        {
            "type": "Feature",
            "properties": {
                "res_com": "M9",
                "label": "Porte de St-Cloud"
            },
            "geometry": {
                "type": "Point",
                "coordinates": [
                    2.257122229845438,
                    48.837961213537049
                ]
            }
        },
        {
            "type": "Feature",
            "properties": {
                "res_com": "M9",
                "label": "Exelmans"
            },
            "geometry": {
                "type": "Point",
                "coordinates": [
                    2.260032902212424,
                    48.842938695862543
                ]
            }
        },
        {
            "type": "Feature",
            "properties": {
                "res_com": "M9",
                "label": "Jasmin"
            },
            "geometry": {
                "type": "Point",
                "coordinates": [
                    2.26817674943596,
                    48.852504090612889
                ]
            }
        },
        {
            "type": "Feature",
            "properties": {
                "res_com": "M14",
                "label": "Olympiades"
            },
            "geometry": {
                "type": "Point",
                "coordinates": [
                    2.368032647756258,
                    48.827270836039183
                ]
            }
        },
        {
            "type": "Feature",
            "properties": {
                "res_com": "M4",
                "label": "Mairie de Montrouge"
            },
            "geometry": {
                "type": "Point",
                "coordinates": [
                    2.319740313298555,
                    48.818676409912605
                ]
            }
        },
        {
            "type": "Feature",
            "properties": {
                "res_com": "M9 \/ T3B",
                "label": "Porte de Montreuil"
            },
            "geometry": {
                "type": "Point",
                "coordinates": [
                    2.41060653669226,
                    48.853540998658922
                ]
            }
        },
        {
            "type": "Feature",
            "properties": {
                "res_com": "M1 \/ T3A \/ T3B",
                "label": "Porte de Vincennes"
            },
            "geometry": {
                "type": "Point",
                "coordinates": [
                    2.410140367974107,
                    48.847158479402097
                ]
            }
        },
        {
            "type": "Feature",
            "properties": {
                "res_com": "RER C \/ M1",
                "label": "PORTE MAILLOT"
            },
            "geometry": {
                "type": "Point",
                "coordinates": [
                    2.28379555701364,
                    48.877349600593611
                ]
            }
        },
        {
            "type": "Feature",
            "properties": {
                "res_com": "M13 \/ T1",
                "label": "Asnières Gennevilliers Les Courtilles"
            },
            "geometry": {
                "type": "Point",
                "coordinates": [
                    2.284174448283296,
                    48.930757003336282
                ]
            }
        },
        {
            "type": "Feature",
            "properties": {
                "res_com": "M5 \/ T1",
                "label": "Bobigny-P. Picasso"
            },
            "geometry": {
                "type": "Point",
                "coordinates": [
                    2.449189904488852,
                    48.906374770270013
                ]
            }
        },
        {
            "type": "Feature",
            "properties": {
                "res_com": "M12 \/ T3B",
                "label": "Porte de la Chapelle"
            },
            "geometry": {
                "type": "Point",
                "coordinates": [
                    2.359393901482993,
                    48.898392953266409
                ]
            }
        },
        {
            "type": "Feature",
            "properties": {
                "res_com": "M3 \/ T3B",
                "label": "Porte de Bagnolet"
            },
            "geometry": {
                "type": "Point",
                "coordinates": [
                    2.408759948420706,
                    48.864585191092701
                ]
            }
        },
        {
            "type": "Feature",
            "properties": {
                "res_com": "LIGNE R \/ RER A \/ RER D \/ M1 \/ M14",
                "label": "GARE DE LYON"
            },
            "geometry": {
                "type": "Point",
                "coordinates": [
                    2.373259978073185,
                    48.844139349860164
                ]
            }
        },
        {
            "type": "Feature",
            "properties": {
                "res_com": "M8 \/ T3A",
                "label": "Porte Dorée"
            },